[{"location": "Raja Ritz Avenue, Bangalore, India", "latitude": 12.97194, "longitude": 77.59369, "frc": "Major road", "currentSpeed": 27, "freeFlowSpeed": 42, "currentTravelTime": 95, "freeFlowTravelTime": 61}, {"location": "Raja Ritz Avenue, Bangalore, India", "latitude": 12.97194, "longitude": 77.59369, "frc": "Major road", "currentSpeed": 27, "freeFlowSpeed": 42, "currentTravelTime": 95, "freeFlowTravelTime": 61}, {"location": "Maangalya Signature, Bangalore, India", "latitude": 12.97194, "longitude": 77.59369, "frc": "Major road", "currentSpeed": 27, "freeFlowSpeed": 42, "currentTravelTime": 95, "freeFlowTravelTime": 61}, {"location": "Adithya Tranquil, Bangalore, India", "latitude": 12.97194, "longitude": 77.59369, "frc": "Major road", "currentSpeed": 27, "freeFlowSpeed": 42, "currentTravelTime": 95, "freeFlowTravelTime": 61}, {"location": "Vasundara, Bangalore, India", "latitude": 12.97194, "longitude": 77.59369, "frc": "Major road", "currentSpeed": 27, "freeFlowSpeed": 42, "currentTravelTime": 95, "freeFlowTravelTime": 61}, {"location": "Arya Hamsa Grande, Bangalore, India", "latitude": 12.97194, "longitude": 77.59369, "frc": "Major road", "currentSpeed": 27, "freeFlowSpeed": 42, "currentTravelTime": 95, "freeFlowTravelTime": 61}, {"location": "Roshan Gardenia, Bangalore, India", "latitude": 12.97194, "longitude": 77.59369, "frc": "Major road", "currentSpeed": 27, "freeFlowSpeed": 42, "currentTravelTime": 95, "freeFlowTravelTime": 61}, {"location": "Sansidh Galaxy, Bangalore, India", "latitude": 12.97194, "longitude": 77.59369, "frc": "Major road", "currentSpeed": 27, "freeFlowSpeed": 42, "currentTravelTime": 95, "freeFlowTravelTime": 61}, {"location": "NR Orchid Gardenia, Bangalore, India", "latitude": 12.97194, "longitude": 77.59369, "frc": "Major road", "currentSpeed": 27, "freeFlowSpeed": 42, "currentTravelTime": 95, "freeFlowTravelTime": 61}, {"location": "Bhuvi By Amsha, Bangalore, India", "latitude": 12.97194, "longitude": 77.59369, "frc": "Major road", "currentSpeed": 27, "freeFlowSpeed": 42, "currentTravelTime": 95, "freeFlowTravelTime": 61}, {"location": "Juniper at Brigade Orchards, Bangalore, India", "latitude": 12.97194, "longitude": 77.59369, "frc": "Major road", "currentSpeed": 27, "freeFlowSpeed": 42, "currentTravelTime": 95, "freeFlowTravelTime": 61}, {"location": "SNN Raj Grandeur, Bangalore, India", "latitude": 12.97194, "longitude": 77.59369, "frc": "Major road", "currentSpeed": 27, "freeFlowSpeed": 42, "currentTravelTime": 95, "freeFlowTravelTime": 61}, {"location": "Mathapathi Brundaavan, Bangalore, India", "latitude": 12.97194, "longitude": 77.59369, "frc": "Major road", "currentSpeed": 27, "freeFlowSpeed": 42, "currentTravelTime": 95, "freeFlowTravelTime": 61}, {"location": "Zenith Residences, Bangalore, India", "latitude": 12.97194, "longitude": 77.59369, "frc": "Major road", "currentSpeed": 27, "freeFlowSpeed": 42, "currentTravelTime": 95, "freeFlowTravelTime": 61}, {"location": "Rain Bow Oaks, Bangalore, India", "latitude": 12.97194, "longitude": 77.59369, "frc": "Major road", "currentSpeed": 27, "freeFlowSpeed": 42, "currentTravelTime": 95, "freeFlowTravelTime": 61}, {"location": "Klassik Landmark, Bangalore, India", "latitude": 12.8964127, "longitude": 77.6777978, "frc": "Connecting local road", "currentSpeed": 28, "freeFlowSpeed": 28, "currentTravelTime": 139, "freeFlowTravelTime": 139}, {"location": "TG Ascent, Bangalore, India", "latitude": 12.97194, "longitude": 77.59369, "frc": "Major road", "currentSpeed": 27, "freeFlowSpeed": 42, "currentTravelTime": 95, "freeFlowTravelTime": 61}, {"location": "Windchimes, Bangalore, India", "latitude": 12.9085838, "longitude": 77.6797566, "frc": "Connecting local road", "currentSpeed": 23, "freeFlowSpeed": 23, "currentTravelTime": 182, "freeFlowTravelTime": 182}, {"location": "Republic of Whitefield, Bangalore, India", "latitude": 12.9660289, "longitude": 77.7244436, "frc": "Major road", "currentSpeed": 27, "freeFlowSpeed": 38, "currentTravelTime": 62, "freeFlowTravelTime": 44}, {"location": "HM Tropical Tree, Bangalore, India", "latitude": 12.97194, "longitude": 77.59369, "frc": "Major road", "currentSpeed": 27, "freeFlowSpeed": 42, "currentTravelTime": 95, "freeFlowTravelTime": 61}, {"location": "Provident Central Park, Bangalore, India", "latitude": 12.97194, "longitude": 77.59369, "frc": "Major road", "currentSpeed": 27, "freeFlowSpeed": 42, "currentTravelTime": 95, "freeFlowTravelTime": 61}, {"location": "Assetz Lifestyle 63 Degree East, Bangalore, India", "latitude": 12.97194, "longitude": 77.59369, "frc": "Major road", "currentSpeed": 27, "freeFlowSpeed": 42, "currentTravelTime": 95, "freeFlowTravelTime": 61}, {"location": "Parkside East by Brigade, Bangalore, India", "latitude": 12.97194, "longitude": 77.59369, "frc": "Major road", "currentSpeed": 27, "freeFlowSpeed": 42, "currentTravelTime": 95, "freeFlowTravelTime": 61}, {"location": "Mahaveer Celesse, Bangalore, India", "latitude": 12.97194, "longitude": 77.59369, "frc": "Major road", "currentSpeed": 27, "freeFlowSpeed": 42, "currentTravelTime": 95, "freeFlowTravelTime": 61}, {"location": "Chaitrashree Royale, Bangalore, India", "latitude": 12.97194, "longitude": 77.59369, "frc": "Major road", "currentSpeed": 27, "freeFlowSpeed": 42, "currentTravelTime": 95, "freeFlowTravelTime": 61}, {"location": "DSMAX SKYCLASSIC, Bangalore, India", "latitude": 12.97194, "longitude": 77.59369, "frc": "Major road", "currentSpeed": 27, "freeFlowSpeed": 42, "currentTravelTime": 95, "freeFlowTravelTime": 61}, {"location": "Bollineni Elanza, Bangalore, India", "latitude": 12.97194, "longitude": 77.59369, "frc": "Major road", "currentSpeed": 27, "freeFlowSpeed": 42, "currentTravelTime": 95, "freeFlowTravelTime": 61}, {"location": "Ramky One North, Bangalore, India", "latitude": 13.1362338, "longitude": 77.5717763, "frc": "Secondary road", "currentSpeed": 46, "freeFlowSpeed": 46, "currentTravelTime": 167, "freeFlowTravelTime": 167}, {"location": "Sterling Ascentia, Bangalore, India", "latitude": 12.97194, "longitude": 77.59369, "frc": "Major road", "currentSpeed": 27, "freeFlowSpeed": 42, "currentTravelTime": 95, "freeFlowTravelTime": 61}, {"location": "Deccan Habitat, Bangalore, India", "latitude": 12.97194, "longitude": 77.59369, "frc": "Major road", "currentSpeed": 27, "freeFlowSpeed": 42, "currentTravelTime": 95, "freeFlowTravelTime": 61}, {"location": "Janaadhar Shubha, Bangalore, India", "latitude": 12.97194, "longitude": 77.59369, "frc": "Major road", "currentSpeed": 27, "freeFlowSpeed": 42, "currentTravelTime": 95, "freeFlowTravelTime": 61}]