[{"location": "Patels Bright View, Hyderabad, India", "latitude": 17.38405, "longitude": 78.45636, "airDescription": "Low air quality", "airQualityIndex": 23, "airPollutant": "Inhalable particulate matter (<10\u00b5m)"}, {"location": "Rajapushpa Eterna, Hyderabad, India", "latitude": 17.38405, "longitude": 78.45636, "airDescription": "Low air quality", "airQualityIndex": 23, "airPollutant": "Inhalable particulate matter (<10\u00b5m)"}, {"location": "Theme Vista, Hyderabad, India", "latitude": 17.38405, "longitude": 78.45636, "airDescription": "Low air quality", "airQualityIndex": 23, "airPollutant": "Inhalable particulate matter (<10\u00b5m)"}, {"location": "Dukes Galaxy, Hyderabad, India", "latitude": 17.38405, "longitude": 78.45636, "airDescription": "Low air quality", "airQualityIndex": 23, "airPollutant": "Inhalable particulate matter (<10\u00b5m)"}, {"location": "Sri Ram Garden By Jains, Hyderabad, India", "latitude": 17.38405, "longitude": 78.45636, "airDescription": "Low air quality", "airQualityIndex": 23, "airPollutant": "Inhalable particulate matter (<10\u00b5m)"}, {"location": "Patels Bright View, Hyderabad, India", "latitude": 17.38405, "longitude": 78.45636, "airDescription": "Low air quality", "airQualityIndex": 23, "airPollutant": "Inhalable particulate matter (<10\u00b5m)"}, {"location": "Vishnu Vistara, Hyderabad, India", "latitude": 17.38405, "longitude": 78.45636, "airDescription": "Low air quality", "airQualityIndex": 23, "airPollutant": "Inhalable particulate matter (<10\u00b5m)"}, {"location": "Manbhum Around the Grove, Hyderabad, India", "latitude": 17.38405, "longitude": 78.45636, "airDescription": "Low air quality", "airQualityIndex": 23, "airPollutant": "Inhalable particulate matter (<10\u00b5m)"}, {"location": "Ramky One Marvel, Hyderabad, India", "latitude": 17.38405, "longitude": 78.45636, "airDescription": "Low air quality", "airQualityIndex": 23, "airPollutant": "Inhalable particulate matter (<10\u00b5m)"}, {"location": "Lake City, Hyderabad, India", "latitude": 17.3887859, "longitude": 78.4610647, "airDescription": "Low air quality", "airQualityIndex": 23, "airPollutant": "Fine particulate matter (<2.5\u00b5m)"}, {"location": "Civitas, Hyderabad, India", "latitude": 17.38405, "longitude": 78.45636, "airDescription": "Low air quality", "airQualityIndex": 23, "airPollutant": "Inhalable particulate matter (<10\u00b5m)"}, {"location": "Rochishmati Noveo Homes, Hyderabad, India", "latitude": 17.38405, "longitude": 78.45636, "airDescription": "Low air quality", "airQualityIndex": 23, "airPollutant": "Inhalable particulate matter (<10\u00b5m)"}, {"location": "RR Signature, Hyderabad, India", "latitude": 17.38405, "longitude": 78.45636, "airDescription": "Low air quality", "airQualityIndex": 23, "airPollutant": "Inhalable particulate matter (<10\u00b5m)"}, {"location": "Modi Emerald Heights, Hyderabad, India", "latitude": 17.38405, "longitude": 78.45636, "airDescription": "Low air quality", "airQualityIndex": 23, "airPollutant": "Inhalable particulate matter (<10\u00b5m)"}, {"location": "Land Mark, Hyderabad, India", "latitude": 17.3943471, "longitude": 78.4516828, "airDescription": "Low air quality", "airQualityIndex": 20, "airPollutant": "Fine particulate matter (<2.5\u00b5m)"}, {"location": "Vishnu Krupas Golden Oriole, Hyderabad, India", "latitude": 17.38405, "longitude": 78.45636, "airDescription": "Low air quality", "airQualityIndex": 23, "airPollutant": "Inhalable particulate matter (<10\u00b5m)"}, {"location": "Sai Srinivasam, Hyderabad, India", "latitude": 17.38405, "longitude": 78.45636, "airDescription": "Low air quality", "airQualityIndex": 23, "airPollutant": "Inhalable particulate matter (<10\u00b5m)"}, {"location": "Vihhari, Hyderabad, India", "latitude": 17.38405, "longitude": 78.45636, "airDescription": "Low air quality", "airQualityIndex": 23, "airPollutant": "Inhalable particulate matter (<10\u00b5m)"}, {"location": "My Space, Hyderabad, India", "latitude": 17.38405, "longitude": 78.45636, "airDescription": "Low air quality", "airQualityIndex": 23, "airPollutant": "Inhalable particulate matter (<10\u00b5m)"}, {"location": "Ridge Towers, Hyderabad, India", "latitude": 17.4263524, "longitude": 78.4349399, "airDescription": "Low air quality", "airQualityIndex": 21, "airPollutant": "Fine particulate matter (<2.5\u00b5m)"}, {"location": "Aparna One, Hyderabad, India", "latitude": 17.4739163, "longitude": 78.313553, "airDescription": "Low air quality", "airQualityIndex": 24, "airPollutant": "Inhalable particulate matter (<10\u00b5m)"}, {"location": "Golden Oriole, Hyderabad, India", "latitude": 17.38405, "longitude": 78.45636, "airDescription": "Low air quality", "airQualityIndex": 23, "airPollutant": "Inhalable particulate matter (<10\u00b5m)"}, {"location": "Vasavi GP Trend, Hyderabad, India", "latitude": 17.38405, "longitude": 78.45636, "airDescription": "Low air quality", "airQualityIndex": 23, "airPollutant": "Inhalable particulate matter (<10\u00b5m)"}, {"location": "Concrete Vivanta, Hyderabad, India", "latitude": 17.38405, "longitude": 78.45636, "airDescription": "Low air quality", "airQualityIndex": 23, "airPollutant": "Inhalable particulate matter (<10\u00b5m)"}, {"location": "Flemingo, Hyderabad, India", "latitude": 17.38405, "longitude": 78.45636, "airDescription": "Low air quality", "airQualityIndex": 23, "airPollutant": "Inhalable particulate matter (<10\u00b5m)"}, {"location": "Riddhis Saphire, Hyderabad, India", "latitude": 17.38405, "longitude": 78.45636, "airDescription": "Low air quality", "airQualityIndex": 23, "airPollutant": "Inhalable particulate matter (<10\u00b5m)"}, {"location": "EIPL Rivera, Hyderabad, India", "latitude": 17.38405, "longitude": 78.45636, "airDescription": "Low air quality", "airQualityIndex": 23, "airPollutant": "Inhalable particulate matter (<10\u00b5m)"}, {"location": "Hallmark Vicinia, Hyderabad, India", "latitude": 17.38405, "longitude": 78.45636, "airDescription": "Low air quality", "airQualityIndex": 23, "airPollutant": "Inhalable particulate matter (<10\u00b5m)"}, {"location": "Jayabheri The Summit, Hyderabad, India", "latitude": 17.38405, "longitude": 78.45636, "airDescription": "Low air quality", "airQualityIndex": 23, "airPollutant": "Inhalable particulate matter (<10\u00b5m)"}, {"location": "Saket Pranamam, Hyderabad, India", "latitude": 17.38405, "longitude": 78.45636, "airDescription": "Low air quality", "airQualityIndex": 23, "airPollutant": "Inhalable particulate matter (<10\u00b5m)"}, {"location": "Sumadhura Horizon, Hyderabad, India", "latitude": 17.38405, "longitude": 78.45636, "airDescription": "Low air quality", "airQualityIndex": 23, "airPollutant": "Inhalable particulate matter (<10\u00b5m)"}]