[{"location": "Patels Bright View, Hyderabad, India", "latitude": 17.38405, "longitude": 78.45636, "frc": "Connecting local road", "currentSpeed": 23, "freeFlowSpeed": 23, "currentTravelTime": 139, "freeFlowTravelTime": 139}, {"location": "Rajapushpa Eterna, Hyderabad, India", "latitude": 17.38405, "longitude": 78.45636, "frc": "Connecting local road", "currentSpeed": 23, "freeFlowSpeed": 23, "currentTravelTime": 139, "freeFlowTravelTime": 139}, {"location": "Theme Vista, Hyderabad, India", "latitude": 17.38405, "longitude": 78.45636, "frc": "Connecting local road", "currentSpeed": 23, "freeFlowSpeed": 23, "currentTravelTime": 139, "freeFlowTravelTime": 139}, {"location": "Dukes Galaxy, Hyderabad, India", "latitude": 17.38405, "longitude": 78.45636, "frc": "Connecting local road", "currentSpeed": 23, "freeFlowSpeed": 23, "currentTravelTime": 139, "freeFlowTravelTime": 139}, {"location": "Sri Ram Garden By Jains, Hyderabad, India", "latitude": 17.38405, "longitude": 78.45636, "frc": "Connecting local road", "currentSpeed": 23, "freeFlowSpeed": 23, "currentTravelTime": 139, "freeFlowTravelTime": 139}, {"location": "Patels Bright View, Hyderabad, India", "latitude": 17.38405, "longitude": 78.45636, "frc": "Connecting local road", "currentSpeed": 23, "freeFlowSpeed": 23, "currentTravelTime": 139, "freeFlowTravelTime": 139}, {"location": "Vishnu Vistara, Hyderabad, India", "latitude": 17.38405, "longitude": 78.45636, "frc": "Connecting local road", "currentSpeed": 23, "freeFlowSpeed": 23, "currentTravelTime": 139, "freeFlowTravelTime": 139}, {"location": "Manbhum Around the Grove, Hyderabad, India", "latitude": 17.38405, "longitude": 78.45636, "frc": "Connecting local road", "currentSpeed": 23, "freeFlowSpeed": 23, "currentTravelTime": 139, "freeFlowTravelTime": 139}, {"location": "Ramky One Marvel, Hyderabad, India", "latitude": 17.38405, "longitude": 78.45636, "frc": "Connecting local road", "currentSpeed": 23, "freeFlowSpeed": 23, "currentTravelTime": 139, "freeFlowTravelTime": 139}, {"location": "Lake City, Hyderabad, India", "latitude": 17.3887859, "longitude": 78.4610647, "frc": "Connecting local road", "currentSpeed": 25, "freeFlowSpeed": 25, "currentTravelTime": 128, "freeFlowTravelTime": 128}, {"location": "Civitas, Hyderabad, India", "latitude": 17.38405, "longitude": 78.45636, "frc": "Connecting local road", "currentSpeed": 23, "freeFlowSpeed": 23, "currentTravelTime": 139, "freeFlowTravelTime": 139}, {"location": "Rochishmati Noveo Homes, Hyderabad, India", "latitude": 17.38405, "longitude": 78.45636, "frc": "Connecting local road", "currentSpeed": 23, "freeFlowSpeed": 23, "currentTravelTime": 139, "freeFlowTravelTime": 139}, {"location": "RR Signature, Hyderabad, India", "latitude": 17.38405, "longitude": 78.45636, "frc": "Connecting local road", "currentSpeed": 23, "freeFlowSpeed": 23, "currentTravelTime": 139, "freeFlowTravelTime": 139}, {"location": "Modi Emerald Heights, Hyderabad, India", "latitude": 17.38405, "longitude": 78.45636, "frc": "Connecting local road", "currentSpeed": 23, "freeFlowSpeed": 23, "currentTravelTime": 139, "freeFlowTravelTime": 139}, {"location": "Land Mark, Hyderabad, India", "latitude": 17.3943471, "longitude": 78.4516828, "frc": "Connecting local road", "currentSpeed": 23, "freeFlowSpeed": 23, "currentTravelTime": 154, "freeFlowTravelTime": 154}, {"location": "Vishnu Krupas Golden Oriole, Hyderabad, India", "latitude": 17.38405, "longitude": 78.45636, "frc": "Connecting local road", "currentSpeed": 23, "freeFlowSpeed": 23, "currentTravelTime": 139, "freeFlowTravelTime": 139}, {"location": "Sai Srinivasam, Hyderabad, India", "latitude": 17.38405, "longitude": 78.45636, "frc": "Connecting local road", "currentSpeed": 23, "freeFlowSpeed": 23, "currentTravelTime": 139, "freeFlowTravelTime": 139}, {"location": "Vihhari, Hyderabad, India", "latitude": 17.38405, "longitude": 78.45636, "frc": "Connecting local road", "currentSpeed": 23, "freeFlowSpeed": 23, "currentTravelTime": 139, "freeFlowTravelTime": 139}, {"location": "My Space, Hyderabad, India", "latitude": 17.38405, "longitude": 78.45636, "frc": "Connecting local road", "currentSpeed": 23, "freeFlowSpeed": 23, "currentTravelTime": 139, "freeFlowTravelTime": 139}, {"location": "Ridge Towers, Hyderabad, India", "latitude": 17.4263524, "longitude": 78.4349399, "frc": "Secondary road", "currentSpeed": 29, "freeFlowSpeed": 29, "currentTravelTime": 119, "freeFlowTravelTime": 119}, {"location": "Aparna One, Hyderabad, India", "latitude": 17.4739163, "longitude": 78.313553, "frc": "Connecting local road", "currentSpeed": 29, "freeFlowSpeed": 29, "currentTravelTime": 155, "freeFlowTravelTime": 155}, {"location": "Golden Oriole, Hyderabad, India", "latitude": 17.38405, "longitude": 78.45636, "frc": "Connecting local road", "currentSpeed": 23, "freeFlowSpeed": 23, "currentTravelTime": 139, "freeFlowTravelTime": 139}, {"location": "Vasavi GP Trend, Hyderabad, India", "latitude": 17.38405, "longitude": 78.45636, "frc": "Connecting local road", "currentSpeed": 23, "freeFlowSpeed": 23, "currentTravelTime": 139, "freeFlowTravelTime": 139}, {"location": "Concrete Vivanta, Hyderabad, India", "latitude": 17.38405, "longitude": 78.45636, "frc": "Connecting local road", "currentSpeed": 23, "freeFlowSpeed": 23, "currentTravelTime": 139, "freeFlowTravelTime": 139}, {"location": "Flemingo, Hyderabad, India", "latitude": 17.38405, "longitude": 78.45636, "frc": "Connecting local road", "currentSpeed": 23, "freeFlowSpeed": 23, "currentTravelTime": 139, "freeFlowTravelTime": 139}, {"location": "Riddhis Saphire, Hyderabad, India", "latitude": 17.38405, "longitude": 78.45636, "frc": "Connecting local road", "currentSpeed": 23, "freeFlowSpeed": 23, "currentTravelTime": 139, "freeFlowTravelTime": 139}, {"location": "EIPL Rivera, Hyderabad, India", "latitude": 17.38405, "longitude": 78.45636, "frc": "Connecting local road", "currentSpeed": 23, "freeFlowSpeed": 23, "currentTravelTime": 139, "freeFlowTravelTime": 139}, {"location": "Hallmark Vicinia, Hyderabad, India", "latitude": 17.38405, "longitude": 78.45636, "frc": "Connecting local road", "currentSpeed": 23, "freeFlowSpeed": 23, "currentTravelTime": 139, "freeFlowTravelTime": 139}, {"location": "Jayabheri The Summit, Hyderabad, India", "latitude": 17.38405, "longitude": 78.45636, "frc": "Connecting local road", "currentSpeed": 23, "freeFlowSpeed": 23, "currentTravelTime": 139, "freeFlowTravelTime": 139}, {"location": "Saket Pranamam, Hyderabad, India", "latitude": 17.38405, "longitude": 78.45636, "frc": "Connecting local road", "currentSpeed": 23, "freeFlowSpeed": 23, "currentTravelTime": 139, "freeFlowTravelTime": 139}, {"location": "Sumadhura Horizon, Hyderabad, India", "latitude": 17.38405, "longitude": 78.45636, "frc": "Connecting local road", "currentSpeed": 23, "freeFlowSpeed": 23, "currentTravelTime": 139, "freeFlowTravelTime": 139}]